[{"occur_date": "01/09/2016", "street_address": "1752 PRYOR RD SW", "occur_time": "18", "day": "Sat", "type": "LARCENY-FROM VEHICLE", "neighborhood": "Betmar LaVilla", "longitude": "-84.396739999999994", "latitude": "33.70731"}, {"occur_date": "01/19/2016", "street_address": "245 AMAL DR SW", "occur_time": "20", "day": "Unk", "type": "AUTO THEFT", "neighborhood": "Betmar LaVilla", "longitude": "-84.39573", "latitude": "33.706119999999999"}, {"occur_date": "01/23/2016", "street_address": "1752 PRYOR RD SW", "occur_time": "22", "day": "Sat", "type": "AGG ASSAULT", "neighborhood": "Betmar LaVilla", "longitude": "-84.396739999999994", "latitude": "33.70731"}, {"occur_date": "02/11/2016", "street_address": "1695 PRYOR RD SW", "occur_time": "16", "day": "Thu", "type": "AUTO THEFT", "neighborhood": "Betmar LaVilla", "longitude": "-84.393739999999994", "latitude": "33.708939999999998"}, {"occur_date": "02/16/2016", "street_address": "1752 PRYOR RD SW", "occur_time": "06", "day": "Tue", "type": "LARCENY-FROM VEHICLE", "neighborhood": "Betmar LaVilla", "longitude": "-84.396739999999994", "latitude": "33.70731"}, {"occur_date": "02/22/2016", "street_address": "1695 PRYOR RD SW", "occur_time": "13", "day": "Mon", "type": "AGG ASSAULT", "neighborhood": "Betmar LaVilla", "longitude": "-84.393739999999994", "latitude": "33.708939999999998"}, {"occur_date": "02/28/2016", "street_address": "1767 MAPLE WALK CIR SW", "occur_time": "14", "day": "Sun", "type": "BURGLARY-RESIDENCE", "neighborhood": "Betmar LaVilla", "longitude": "-84.398449999999997", "latitude": "33.70599"}, {"occur_date": "03/17/2016", "street_address": "245 AMAL DR SW", "occur_time": "22", "day": "Fri", "type": "LARCENY-FROM VEHICLE", "neighborhood": "Betmar LaVilla", "longitude": "-84.39573", "latitude": "33.706119999999999"}, {"occur_date": "04/06/2016", "street_address": "1765 MAPLE WALK CIR SW", "occur_time": "09", "day": "Wed", "type": "AUTO THEFT", "neighborhood": "Betmar LaVilla", "longitude": "-84.39828", "latitude": "33.70626"}, {"occur_date": "04/06/2016", "street_address": "AMAL DR SW / PRYOR RD SW", "occur_time": "22", "day": "Wed", "type": "AGG ASSAULT", "neighborhood": "Betmar LaVilla", "longitude": "-84.395970000000005", "latitude": "33.707819999999998"}, {"occur_date": "05/11/2016", "street_address": "245 AMAL DR SW", "occur_time": "14", "day": "Wed", "type": "ROBBERY-PEDESTRIAN", "neighborhood": "Betmar LaVilla", "longitude": "-84.39573", "latitude": "33.706119999999999"}, {"occur_date": "05/18/2016", "street_address": "1752 PRYOR RD SW", "occur_time": "23", "day": "Wed", "type": "LARCENY-FROM VEHICLE", "neighborhood": "Betmar LaVilla", "longitude": "-84.396739999999994", "latitude": "33.70731"}, {"occur_date": "05/20/2016", "street_address": "250 AMAL DR SW", "occur_time": "20", "day": "Sat", "type": "LARCENY-FROM VEHICLE", "neighborhood": "Betmar LaVilla", "longitude": "-84.396039999999999", "latitude": "33.705880000000001"}, {"occur_date": "05/22/2016", "street_address": "1752 PRYOR RD SW", "occur_time": "12", "day": "Sun", "type": "AUTO THEFT", "neighborhood": "Betmar LaVilla", "longitude": "-84.396739999999994", "latitude": "33.70731"}, {"occur_date": "05/19/2016", "street_address": "240 AMAL DR SW", "occur_time": "12", "day": "Unk", "type": "AUTO THEFT", "neighborhood": "Betmar LaVilla", "longitude": "-84.395300000000006", "latitude": "33.706159999999997"}, {"occur_date": "06/02/2016", "street_address": "245 AMAL DR SW", "occur_time": "17", "day": "Thu", "type": "AUTO THEFT", "neighborhood": "Betmar LaVilla", "longitude": "-84.39573", "latitude": "33.706119999999999"}, {"occur_date": "06/16/2016", "street_address": "1732 PRYOR RD SW", "occur_time": "20", "day": "Thu", "type": "LARCENY-FROM VEHICLE", "neighborhood": "Betmar LaVilla", "longitude": "-84.395970000000005", "latitude": "33.707819999999998"}, {"occur_date": "06/21/2016", "street_address": "407 ASHWOOD AVE SW", "occur_time": "08", "day": "Tue", "type": "LARCENY-FROM VEHICLE", "neighborhood": "Betmar LaVilla", "longitude": "-84.402540000000002", "latitude": "33.705629999999999"}, {"occur_date": "06/23/2016", "street_address": "240 AMAL DR SW", "occur_time": "22", "day": "Fri", "type": "AUTO THEFT", "neighborhood": "Betmar LaVilla", "longitude": "-84.395300000000006", "latitude": "33.706159999999997"}, {"occur_date": "06/24/2016", "street_address": "230 AMAL DR SW", "occur_time": "22", "day": "Fri", "type": "AUTO THEFT", "neighborhood": "Betmar LaVilla", "longitude": "-84.395510000000002", "latitude": "33.707540000000002"}, {"occur_date": "06/28/2016", "street_address": "1732 PRYOR RD", "occur_time": "22", "day": "Tue", "type": "ROBBERY-PEDESTRIAN", "neighborhood": "Betmar LaVilla", "longitude": "-84.395290000000003", "latitude": "33.707250000000002"}, {"occur_date": "07/14/2016", "street_address": "407 ASHWOOD AVE SW", "occur_time": "10", "day": "Unk", "type": "LARCENY-NON VEHICLE", "neighborhood": "Betmar LaVilla", "longitude": "-84.402540000000002", "latitude": "33.705629999999999"}, {"occur_date": "08/02/2016", "street_address": "381 ASHWOOD AVE SW", "occur_time": "19", "day": "Tue", "type": "LARCENY-FROM VEHICLE", "neighborhood": "Betmar LaVilla", "longitude": "-84.4011", "latitude": "33.705390000000001"}, {"occur_date": "08/15/2016", "street_address": "381 ASHWOOD AVE SW", "occur_time": "15", "day": "Mon", "type": "LARCENY-NON VEHICLE", "neighborhood": "Betmar LaVilla", "longitude": "-84.4011", "latitude": "33.705390000000001"}, {"occur_date": "08/23/2016", "street_address": "1695 PRYOR RD SW", "occur_time": "17", "day": "Tue", "type": "ROBBERY-RESIDENCE", "neighborhood": "Betmar LaVilla", "longitude": "-84.395060000000001", "latitude": "33.708399999999997"}, {"occur_date": "08/26/2016", "street_address": "1790 BOND DR SW", "occur_time": "14", "day": "Fri", "type": "LARCENY-FROM VEHICLE", "neighborhood": "Betmar LaVilla", "longitude": "-84.401849999999996", "latitude": "33.707479999999997"}, {"occur_date": "08/26/2016", "street_address": "1800 BOND DR SW", "occur_time": "18", "day": "Unk", "type": "AUTO THEFT", "neighborhood": "Betmar LaVilla", "longitude": "-84.401759999999996", "latitude": "33.70731"}, {"occur_date": "09/10/2016", "street_address": "363 ASHWOOD AVE SW", "occur_time": "19", "day": "Sat", "type": "AUTO THEFT", "neighborhood": "Betmar LaVilla", "longitude": "-84.400379999999998", "latitude": "33.705390000000001"}, {"occur_date": "09/18/2016", "street_address": "1752 PRYOR ROAD SW", "occur_time": "09", "day": "Sun", "type": "LARCENY-FROM VEHICLE", "neighborhood": "Betmar LaVilla", "longitude": "-84.396739999999994", "latitude": "33.70731"}, {"occur_date": "09/26/2016", "street_address": "250 AMAL DR SW", "occur_time": "00", "day": "Mon", "type": "LARCENY-FROM VEHICLE", "neighborhood": "Betmar LaVilla", "longitude": "-84.396039999999999", "latitude": "33.705880000000001"}, {"occur_date": "11/26/2016", "street_address": "1790 BOND DR SW", "occur_time": "01", "day": "Sat", "type": "LARCENY-FROM VEHICLE", "neighborhood": "Betmar LaVilla", "longitude": "-84.401849999999996", "latitude": "33.707479999999997"}, {"occur_date": "11/25/2016", "street_address": "1752 PRYOR RD SW", "occur_time": "01", "day": "Fri", "type": "LARCENY-FROM VEHICLE", "neighborhood": "Betmar LaVilla", "longitude": "-84.396739999999994", "latitude": "33.70731"}, {"occur_date": "11/25/2016", "street_address": "1752 PRYOR RD SW", "occur_time": "00", "day": "Unk", "type": "LARCENY-FROM VEHICLE", "neighborhood": "Betmar LaVilla", "longitude": "-84.396739999999994", "latitude": "33.70731"}, {"occur_date": "11/26/2016", "street_address": "245 AMAL DR SW", "occur_time": "20", "day": "Unk", "type": "LARCENY-NON VEHICLE", "neighborhood": "Betmar LaVilla", "longitude": "-84.39573", "latitude": "33.706119999999999"}, {"occur_date": "12/03/2016", "street_address": "240 AMAL DR SW", "occur_time": "01", "day": "Sat", "type": "LARCENY-FROM VEHICLE", "neighborhood": "Betmar LaVilla", "longitude": "-84.395300000000006", "latitude": "33.706159999999997"}, {"occur_date": "12/11/2016", "street_address": "245 AMAL DR SW", "occur_time": "17", "day": "Sun", "type": "LARCENY-FROM VEHICLE", "neighborhood": "Betmar LaVilla", "longitude": "-84.39573", "latitude": "33.706119999999999"}, {"occur_date": "12/25/2016", "street_address": "250 AMAL DR SW", "occur_time": "21", "day": "Mon", "type": "LARCENY-FROM VEHICLE", "neighborhood": "Betmar LaVilla", "longitude": "-84.396039999999999", "latitude": "33.705880000000001"}]