[{"occur_date": "01/08/2016", "street_address": "885 BRIARCLIFF RD NE", "occur_time": "21", "day": "Unk", "type": "LARCENY-FROM VEHICLE", "neighborhood": "Druid Hills", "longitude": "-84.345759999999999", "latitude": "33.778489999999998"}, {"occur_date": "01/12/2016", "street_address": "1327 FAIRVIEW RD NE", "occur_time": "20", "day": "Wed", "type": "LARCENY-FROM VEHICLE", "neighborhood": "Druid Hills", "longitude": "-84.343909999999994", "latitude": "33.772410000000001"}, {"occur_date": "01/23/2016", "street_address": "826 SPRINGDALE RD NE", "occur_time": "20", "day": "Sat", "type": "LARCENY-FROM VEHICLE", "neighborhood": "Druid Hills", "longitude": "-84.344459999999998", "latitude": "33.777149999999999"}, {"occur_date": "01/25/2016", "street_address": "811 BRIARCLIFF RD NE", "occur_time": "15", "day": "Mon", "type": "LARCENY-FROM VEHICLE", "neighborhood": "Druid Hills", "longitude": "-84.347740000000002", "latitude": "33.776449999999997"}, {"occur_date": "02/01/2016", "street_address": "2 PRESCOTT WALK NE", "occur_time": "19", "day": "Tue", "type": "AUTO THEFT", "neighborhood": "Druid Hills", "longitude": "-84.338589999999996", "latitude": "33.774410000000003"}, {"occur_date": "02/04/2016", "street_address": "1318 FAIRVIEW RD NE", "occur_time": "10", "day": "Thu", "type": "BURGLARY-RESIDENCE", "neighborhood": "Druid Hills", "longitude": "-84.344290000000001", "latitude": "33.773029999999999"}, {"occur_date": "03/20/2016", "street_address": "1287 S PONCE DE LEON AVE NE", "occur_time": "18", "day": "Sun", "type": "LARCENY-FROM VEHICLE", "neighborhood": "Druid Hills", "longitude": "-84.345160000000007", "latitude": "33.773470000000003"}, {"occur_date": "04/20/2016", "street_address": "796 LULLWATER RD NE", "occur_time": "11", "day": "Wed", "type": "LARCENY-FROM VEHICLE", "neighborhood": "Druid Hills", "longitude": "-84.337720000000004", "latitude": "33.776290000000003"}, {"occur_date": "04/28/2016", "street_address": "1509 PONCE DE LEON AVE NE", "occur_time": "14", "day": "Thu", "type": "LARCENY-NON VEHICLE", "neighborhood": "Druid Hills", "longitude": "-84.336969999999994", "latitude": "33.773820000000001"}, {"occur_date": "04/29/2016", "street_address": "1428 PONCE DE LEON AVE", "occur_time": "11", "day": "Fri", "type": "AGG ASSAULT", "neighborhood": "Druid Hills", "longitude": "-84.340100000000007", "latitude": "33.775559999999999"}, {"occur_date": "05/30/2016", "street_address": "846 LULLWATER RD NE", "occur_time": "17", "day": "Unk", "type": "LARCENY-NON VEHICLE", "neighborhood": "Druid Hills", "longitude": "-84.335210000000004", "latitude": "33.7776"}, {"occur_date": "06/03/2016", "street_address": "1509 S PONCE DE LEON AVE NE", "occur_time": "11", "day": "Fri", "type": "LARCENY-FROM VEHICLE", "neighborhood": "Druid Hills", "longitude": "-84.338250000000002", "latitude": "33.773470000000003"}, {"occur_date": "06/02/2016", "street_address": "831 BRIARCLIFF RD NE", "occur_time": "16", "day": "Fri", "type": "LARCENY-FROM VEHICLE", "neighborhood": "Druid Hills", "longitude": "-84.347179999999994", "latitude": "33.777140000000003"}, {"occur_date": "06/18/2016", "street_address": "740 CLIFTON RD NE", "occur_time": "08", "day": "Sat", "type": "LARCENY-FROM VEHICLE", "neighborhood": "Druid Hills", "longitude": "-84.331329999999994", "latitude": "33.775399999999998"}, {"occur_date": "06/20/2016", "street_address": "740 CLIFTON RD NE", "occur_time": "18", "day": "Mon", "type": "LARCENY-NON VEHICLE", "neighborhood": "Druid Hills", "longitude": "-84.331329999999994", "latitude": "33.775399999999998"}, {"occur_date": "07/09/2016", "street_address": "290 MARGARET ST SE", "occur_time": "15", "day": "Sat", "type": "LARCENY-FROM VEHICLE", "neighborhood": "Druid Hills", "longitude": "-84.348979999999997", "latitude": "33.77384"}, {"occur_date": "07/27/2016", "street_address": "1200 PONCE DE LEON AVE NE", "occur_time": "20", "day": "Thu", "type": "LARCENY-NON VEHICLE", "neighborhood": "Druid Hills", "longitude": "-84.348190000000002", "latitude": "33.774659999999997"}, {"occur_date": "08/09/2016", "street_address": "909 OAKDALE RD NE", "occur_time": "08", "day": "Tue", "type": "LARCENY-FROM VEHICLE", "neighborhood": "Druid Hills", "longitude": "-84.336510000000004", "latitude": "33.7791"}, {"occur_date": "08/25/2016", "street_address": "834 LULLWATER RD NE", "occur_time": "17", "day": "Fri", "type": "BURGLARY-RESIDENCE", "neighborhood": "Druid Hills", "longitude": "-84.335350000000005", "latitude": "33.777410000000003"}, {"occur_date": "09/05/2016", "street_address": "1215 S PONCE DE LEON AVE NE", "occur_time": "00", "day": "Mon", "type": "BURGLARY-NONRES", "neighborhood": "Druid Hills", "longitude": "-84.347610000000003", "latitude": "33.773310000000002"}, {"occur_date": "09/08/2016", "street_address": "1200 PONCE DE LEON AVE NE", "occur_time": "09", "day": "Thu", "type": "LARCENY-FROM VEHICLE", "neighborhood": "Druid Hills", "longitude": "-84.348190000000002", "latitude": "33.774659999999997"}, {"occur_date": "09/12/2016", "street_address": "1634 PONCE DE LEON AVE NE", "occur_time": "20", "day": "Tue", "type": "LARCENY-FROM VEHICLE", "neighborhood": "Druid Hills", "longitude": "-84.332999999999998", "latitude": "33.774169999999998"}, {"occur_date": "09/24/2016", "street_address": "1509 S PONCE DE LEON AVE NE", "occur_time": "01", "day": "Sat", "type": "AUTO THEFT", "neighborhood": "Druid Hills", "longitude": "-84.337890000000002", "latitude": "33.77319"}, {"occur_date": "10/06/2016", "street_address": "1509 S PONCE DE LEON AVE NE", "occur_time": "11", "day": "Thu", "type": "LARCENY-NON VEHICLE", "neighborhood": "Druid Hills", "longitude": "-84.337890000000002", "latitude": "33.77319"}, {"occur_date": "12/08/2016", "street_address": "814 LULLWATER RD NE", "occur_time": "23", "day": "Fri", "type": "LARCENY-FROM VEHICLE", "neighborhood": "Druid Hills", "longitude": "-84.335970000000003", "latitude": "33.777140000000003"}, {"occur_date": "12/26/2016", "street_address": "1348 FAIRVIEW RD NE", "occur_time": "19", "day": "Mon", "type": "LARCENY-FROM VEHICLE", "neighborhood": "Druid Hills", "longitude": "-84.343270000000004", "latitude": "33.773060000000001"}]