[{"occur_date": "01/12/2016", "street_address": "4514 DORAL DR SW", "occur_time": "16", "day": "Tue", "type": "BURGLARY-RESIDENCE", "neighborhood": "Fairway Acres", "longitude": "-84.535979999999995", "latitude": "33.687510000000003"}, {"occur_date": "04/08/2016", "street_address": "2380 FAIRWAY CIR SW", "occur_time": "13", "day": "Unk", "type": "AUTO THEFT", "neighborhood": "Fairway Acres", "longitude": "-84.537490000000005", "latitude": "33.689030000000002"}, {"occur_date": "04/17/2016", "street_address": "2505 COUNTY LINE RD SW", "occur_time": "20", "day": "Mon", "type": "AUTO THEFT", "neighborhood": "Fairway Acres", "longitude": "-84.534419999999997", "latitude": "33.686869999999999"}, {"occur_date": "05/21/2016", "street_address": "2232 DORAL CT SW", "occur_time": "15", "day": "Sat", "type": "LARCENY-NON VEHICLE", "neighborhood": "Fairway Acres", "longitude": "-84.537289999999999", "latitude": "33.687779999999997"}, {"occur_date": "06/28/2016", "street_address": "2405 COUNTY LINE RD SW", "occur_time": "20", "day": "Wed", "type": "LARCENY-FROM VEHICLE", "neighborhood": "Fairway Acres", "longitude": "-84.534639999999996", "latitude": "33.68929"}, {"occur_date": "08/08/2016", "street_address": "4553 SAHARA DR SW;", "occur_time": "15", "day": "Mon", "type": "AGG ASSAULT", "neighborhood": "Fairway Acres", "longitude": "-84.537210000000002", "latitude": "33.685940000000002"}, {"occur_date": "08/28/2016", "street_address": "4575 ST. ANDREWS DR SW", "occur_time": "17", "day": "Unk", "type": "LARCENY-NON VEHICLE", "neighborhood": "Fairway Acres", "longitude": "-84.537819999999996", "latitude": "33.687049999999999"}, {"occur_date": "09/05/2016", "street_address": "2415 COUNTY LINE RD SW", "occur_time": "18", "day": "Mon", "type": "AGG ASSAULT", "neighborhood": "Fairway Acres", "longitude": "-84.53877", "latitude": "33.686610000000002"}, {"occur_date": "10/20/2016", "street_address": "2340 FAIRWAY CIR SW", "occur_time": "23", "day": "Fri", "type": "LARCENY-FROM VEHICLE", "neighborhood": "Fairway Acres", "longitude": "-84.536699999999996", "latitude": "33.688839999999999"}, {"occur_date": "10/31/2016", "street_address": "4553 SAHARA DR SW", "occur_time": "15", "day": "Mon", "type": "AGG ASSAULT", "neighborhood": "Fairway Acres", "longitude": "-84.537210000000002", "latitude": "33.685940000000002"}, {"occur_date": "10/17/2016", "street_address": "4578 SAINT ANDREWS DR SW", "occur_time": "08", "day": "Unk", "type": "LARCENY-NON VEHICLE", "neighborhood": "Fairway Acres", "longitude": "-84.537989999999994", "latitude": "33.686610000000002"}, {"occur_date": "11/29/2016", "street_address": "2544 COUNTY LINE RD SW", "occur_time": "23", "day": "Tue", "type": "ROBBERY-RESIDENCE", "neighborhood": "Fairway Acres", "longitude": "-84.534899999999993", "latitude": "33.68571"}]