[{"occur_date": "02/01/2016", "street_address": "2580 WESTMINSTER HEATH NW", "occur_time": "12", "day": "Mon", "type": "AUTO THEFT", "neighborhood": "Margaret Mitchell", "longitude": "-84.440150000000003", "latitude": "33.826270000000001"}, {"occur_date": "02/18/2016", "street_address": "1330 WESTMINSTER WALK NW", "occur_time": "20", "day": "Fri", "type": "LARCENY-FROM VEHICLE", "neighborhood": "Margaret Mitchell", "longitude": "-84.429910000000007", "latitude": "33.834110000000003"}, {"occur_date": "02/16/2016", "street_address": "1624 PEACHTREE BATTLE AVE NW", "occur_time": "08", "day": "Tue", "type": "LARCENY-NON VEHICLE", "neighborhood": "Margaret Mitchell", "longitude": "-84.440529999999995", "latitude": "33.828510000000001"}, {"occur_date": "05/01/2016", "street_address": "2529 WESTMINSTER HEATH NW", "occur_time": "20", "day": "Mon", "type": "AUTO THEFT", "neighborhood": "Margaret Mitchell", "longitude": "-84.439890000000005", "latitude": "33.825490000000002"}, {"occur_date": "05/09/2016", "street_address": "1285 MOORES MILL RD NW", "occur_time": "16", "day": "Mon", "type": "LARCENY-NON VEHICLE", "neighborhood": "Margaret Mitchell", "longitude": "-84.429580000000001", "latitude": "33.831020000000002"}, {"occur_date": "05/12/2016", "street_address": "2889 SEQUOYAH DR NW", "occur_time": "09", "day": "Thu", "type": "LARCENY-FROM VEHICLE", "neighborhood": "Margaret Mitchell", "longitude": "-84.436909999999997", "latitude": "33.83417"}, {"occur_date": "06/01/2016", "street_address": "1625 PEACHTREE BATTLE AVE NW", "occur_time": "08", "day": "Wed", "type": "BURGLARY-RESIDENCE", "neighborhood": "Margaret Mitchell", "longitude": "-84.439899999999994", "latitude": "33.828809999999997"}, {"occur_date": "07/08/2016", "street_address": "2751 MARGARET MITCHELL DR NW", "occur_time": "10", "day": "Fri", "type": "BURGLARY-RESIDENCE", "neighborhood": "Margaret Mitchell", "longitude": "-84.437979999999996", "latitude": "33.830710000000003"}, {"occur_date": "07/27/2016", "street_address": "1330 DRAYCOTT PL NW", "occur_time": "14", "day": "Wed", "type": "LARCENY-FROM VEHICLE", "neighborhood": "Margaret Mitchell", "longitude": "-84.431979999999996", "latitude": "33.833629999999999"}, {"occur_date": "07/27/2016", "street_address": "1712 RIDGE VALLEY CT", "occur_time": "08", "day": "Unk", "type": "LARCENY-NON VEHICLE", "neighborhood": "Margaret Mitchell", "longitude": "-84.442779999999999", "latitude": "33.831650000000003"}, {"occur_date": "08/08/2016", "street_address": "2805 RIDGE VALLEY RD NW", "occur_time": "23", "day": "Tue", "type": "LARCENY-FROM VEHICLE", "neighborhood": "Margaret Mitchell", "longitude": "-84.441119999999998", "latitude": "33.831859999999999"}, {"occur_date": "08/09/2016", "street_address": "2776 MARGARET MITCHELL DR NW", "occur_time": "20", "day": "Wed", "type": "LARCENY-FROM VEHICLE", "neighborhood": "Margaret Mitchell", "longitude": "-84.437960000000004", "latitude": "33.832149999999999"}, {"occur_date": "11/09/2016", "street_address": "2700 MARGRET MITCHELL RD", "occur_time": "07", "day": "Wed", "type": "LARCENY-FROM VEHICLE", "neighborhood": "Margaret Mitchell", "longitude": "-84.440889999999996", "latitude": "33.828989999999997"}]