[{"occur_date": "01/11/2016", "street_address": "3432 MOUNT GILEAD RD SW", "occur_time": "17", "day": "Mon", "type": "BURGLARY-RESIDENCE", "neighborhood": "Mt. Gilead Woods", "longitude": "-84.501720000000006", "latitude": "33.700130000000001"}, {"occur_date": "03/03/2016", "street_address": "3537 CREIGHTON RD SW", "occur_time": "06", "day": "Thu", "type": "AUTO THEFT", "neighborhood": "Mt. Gilead Woods", "longitude": "-84.505260000000007", "latitude": "33.70026"}, {"occur_date": "03/14/2016", "street_address": "1990 FAIRBURN RD SW", "occur_time": "05", "day": "Mon", "type": "LARCENY-NON VEHICLE", "neighborhood": "Mt. Gilead Woods", "longitude": "-84.506399999999999", "latitude": "33.700499999999998"}, {"occur_date": "04/27/2016", "street_address": "3556 MOUNT GILEAD RD SW", "occur_time": "13", "day": "Wed", "type": "AUTO THEFT", "neighborhood": "Mt. Gilead Woods", "longitude": "-84.505390000000006", "latitude": "33.701270000000001"}, {"occur_date": "05/24/2016", "street_address": "3484 LENARDO DR SW", "occur_time": "22", "day": "Wed", "type": "AUTO THEFT", "neighborhood": "Mt. Gilead Woods", "longitude": "-84.502870000000001", "latitude": "33.698590000000003"}, {"occur_date": "08/12/2016", "street_address": "3432 MOUNT GILEAD RD", "occur_time": "08", "day": "Fri", "type": "BURGLARY-RESIDENCE", "neighborhood": "Mt. Gilead Woods", "longitude": "-84.502300000000005", "latitude": "33.699809999999999"}, {"occur_date": "11/17/2016", "street_address": "3537 CREIGHTON RD SW", "occur_time": "06", "day": "Thu", "type": "BURGLARY-RESIDENCE", "neighborhood": "Mt. Gilead Woods", "longitude": "-84.505260000000007", "latitude": "33.70026"}]