[{"occur_date": "01/26/2016", "street_address": "3659 NORTHSIDE DR NW", "occur_time": "18", "day": "Unk", "type": "BURGLARY-RESIDENCE", "neighborhood": "Tuxedo Park", "longitude": "-84.404820000000001", "latitude": "33.854950000000002"}, {"occur_date": "02/14/2016", "street_address": "3652 ROSWELL RD NW", "occur_time": "19", "day": "Sun", "type": "LARCENY-FROM VEHICLE", "neighborhood": "Tuxedo Park", "longitude": "-84.383009999999999", "latitude": "33.854089999999999"}, {"occur_date": "02/13/2016", "street_address": "3403 TUXEDO RD NW", "occur_time": "15", "day": "Unk", "type": "LARCENY-NON VEHICLE", "neighborhood": "Tuxedo Park", "longitude": "-84.401229999999998", "latitude": "33.848579999999998"}, {"occur_date": "03/06/2016", "street_address": "3652 ROSWELL RD NW", "occur_time": "04", "day": "Sun", "type": "LARCENY-NON VEHICLE", "neighborhood": "Tuxedo Park", "longitude": "-84.383009999999999", "latitude": "33.854089999999999"}, {"occur_date": "03/14/2016", "street_address": "56 PUTNAM DR NW", "occur_time": "04", "day": "Mon", "type": "AUTO THEFT", "neighborhood": "Tuxedo Park", "longitude": "-84.389359999999996", "latitude": "33.858840000000001"}, {"occur_date": "05/03/2016", "street_address": "3658 ROSWELL RD NW", "occur_time": "02", "day": "Tue", "type": "BURGLARY-NONRES", "neighborhood": "Tuxedo Park", "longitude": "-84.38297", "latitude": "33.854750000000003"}, {"occur_date": "05/07/2016", "street_address": "15 VALLEY RD NW", "occur_time": "19", "day": "Sat", "type": "AUTO THEFT", "neighborhood": "Tuxedo Park", "longitude": "-84.388239999999996", "latitude": "33.849240000000002"}, {"occur_date": "06/14/2016", "street_address": "3526 KNOLLWOOD DR", "occur_time": "19", "day": "Wed", "type": "LARCENY-NON VEHICLE", "neighborhood": "Tuxedo Park", "longitude": "-84.396240000000006", "latitude": "33.85136"}, {"occur_date": "07/23/2016", "street_address": "3526 KNOLLWOOD DR NW", "occur_time": "10", "day": "Sat", "type": "LARCENY-FROM VEHICLE", "neighborhood": "Tuxedo Park", "longitude": "-84.396349999999998", "latitude": "33.850920000000002"}, {"occur_date": "08/08/2016", "street_address": "79 HONOUR CIR NW", "occur_time": "06", "day": "Mon", "type": "BURGLARY-RESIDENCE", "neighborhood": "Tuxedo Park", "longitude": "-84.38503", "latitude": "33.852969999999999"}, {"occur_date": "08/22/2016", "street_address": "3658 ROSWELL RD NW", "occur_time": "14", "day": "Mon", "type": "LARCENY-FROM VEHICLE", "neighborhood": "Tuxedo Park", "longitude": "-84.38297", "latitude": "33.854750000000003"}, {"occur_date": "08/09/2016", "street_address": "3574 TUXEDO RD NW", "occur_time": "17", "day": "Tue", "type": "LARCENY-NON VEHICLE", "neighborhood": "Tuxedo Park", "longitude": "-84.405869999999993", "latitude": "33.853070000000002"}, {"occur_date": "09/01/2016", "street_address": "1950 CHILDRESS DR SW", "occur_time": "05", "day": "Thu", "type": "LARCENY-FROM VEHICLE", "neighborhood": "Tuxedo Park", "longitude": "-84.392210000000006", "latitude": "33.858440000000002"}, {"occur_date": "09/13/2016", "street_address": "205 BLACKLAND RD NW", "occur_time": "19", "day": "Tue", "type": "ROBBERY-PEDESTRIAN", "neighborhood": "Tuxedo Park", "longitude": "-84.394229999999993", "latitude": "33.859670000000001"}, {"occur_date": "08/20/2016", "street_address": "3574 TUXEDO RD NW", "occur_time": "18", "day": "Sat", "type": "LARCENY-NON VEHICLE", "neighborhood": "Tuxedo Park", "longitude": "-84.405869999999993", "latitude": "33.853070000000002"}, {"occur_date": "09/30/2016", "street_address": "3510 HABERSHAM RD NW", "occur_time": "09", "day": "Fri", "type": "BURGLARY-RESIDENCE", "neighborhood": "Tuxedo Park", "longitude": "-84.386930000000007", "latitude": "33.850560000000002"}, {"occur_date": "10/07/2016", "street_address": "3465 NORTHSIDE PKWY NW", "occur_time": "12", "day": "Fri", "type": "LARCENY-FROM VEHICLE", "neighborhood": "Tuxedo Park", "longitude": "-84.407110000000003", "latitude": "33.851610000000001"}, {"occur_date": "10/14/2016", "street_address": "3652 ROSWELL RD NW @LANDMARK DINER", "occur_time": "22", "day": "Fri", "type": "LARCENY-FROM VEHICLE", "neighborhood": "Tuxedo Park", "longitude": "-84.383009999999999", "latitude": "33.854089999999999"}, {"occur_date": "11/02/2016", "street_address": "2 PUTNAM DR NW", "occur_time": "10", "day": "Wed", "type": "BURGLARY-RESIDENCE", "neighborhood": "Tuxedo Park", "longitude": "-84.387119999999996", "latitude": "33.858690000000003"}, {"occur_date": "11/16/2016", "street_address": "3636 HABERSHAM RD NW", "occur_time": "16", "day": "Unk", "type": "LARCENY-NON VEHICLE", "neighborhood": "Tuxedo Park", "longitude": "-84.384450000000001", "latitude": "33.852699999999999"}, {"occur_date": "12/19/2016", "street_address": "3564  TUXCEDO RD", "occur_time": "12", "day": "Mon", "type": "LARCENY-NON VEHICLE", "neighborhood": "Tuxedo Park", "longitude": "-84.405860000000004", "latitude": "33.852330000000002"}]